stop_id,stop_code,stop_name,stop_desc,stop_lat,stop_lon,stop_url,location_type,parent_station
867,20603,PLAC ŚW. KATARZYNY 03,,53.013386,18.612342,,,
1909,33208,Wały gen. Sikorskiego 08,,53.0129985220872,18.6037386953831,,,
254,00202,Plac Rapackiego 02,,53.0101679860201,18.5992915928364,,,
338,20803,Plac Armii Krajowej 03,,52.998456,18.605284,,,
492,21001,Park Tysiąclecia 01,,52.998457,18.61037,,,
465,21105,Dworzec Główny 05,,53.000184,18.617336,,,
103,21301,Łódzka 01,,53.0014621980887,18.622550368309,,,
220,21501,Podgórska 01,,53.002541,18.627094,,,
43,53601,Rudacka nż. 01,,53.0032473989268,18.6314928531647,,,
40,25601,Szkoła nż. 01,,53.005976,18.642575,,,
525,25801,Skrzetuskiego nż. 01,,53.005111,18.650276,,,
612,34701,Działki Rudak 01,,53.005342,18.657673,,,
620,65800,GLINIECKA 00,,53.0036944946298,18.6675162613392,,,
666,12901,KOLANKOWSKIEGO 01,,53.028556,18.692048,,,
151,12802,Witosa 02,,53.025673,18.687454,,,
665,11804,Ligi Polskiej 04,,53.0227845493023,18.6880069971085,,,
312,12004,Wyszyńskiego 04,,53.023404,18.682113,,,
554,12102,Ślaskiego 02,,53.023734,18.675865,,,
504,16502,Jamontta 02,,53.025707,18.672528,,,
886,16104,Przy Skarpie 04,,53.024604,18.666122,,,
388,15801,Leszczynowa 1,,53.022646,18.654934,,,
268,35702,Plac Daszyńskiego 08,,53.022624,18.64472,,,
360,65902,Galeria Copernicus 02,,53.023266,18.640103,,,
514,35502,Dworzec Wschodni 02,,53.024047,18.63536,,,
681,02801,Garbaty Mostek 01,,53.019305,18.622073,,,
219,25202,Przy Kaszowniku 04,,53.01697,18.615519,,,
604,67104,Dworzec Autobusowy 04,,53.015366,18.605613,,,
139,28202,Aleja Solidarności 02,,53.0134939274969,18.603098988533,,,
572,07502,Legionów 02,,53.0169261078041,18.6038634181023,,,
720,13202,Dekerta 02,,53.019779,18.602471,,,
289,13402,Lelewela 02,,53.023319,18.60182,,,
117,36201,Lecha 01,,53.028603,18.600695,,,
46,28802,Żwirki i Wigury 02,,53.0286002541145,18.5911282896996,,,
591,29001,Bartkiewiczówny 01,,53.0327232025099,18.5880839824677,,,
64,22101,Bractwa Kurkowego nż. 01,,53.035355,18.585806,,,
533,29201,św. Antoniego 01,,53.040285,18.581994,,,
592,10403,Lisia 03,,53.042513,18.580987,,,
285,02302,Chabrowa 02,,53.044877,18.58889,,,
693,26602,Lniana 02,,53.047802,18.586156,,,
523,29601,Zagonowa nż. 01,,53.047776036555,18.5763493180275,,,
100,44701,Owsiana nż. 01,,53.049384,18.574742,,,
417,66503,os. Leśne-Polana nż. 03,,53.057696,18.560858,,,
37,68101,Przysiecka nż. 01,,53.058829,18.546761,,,
252,60201,BARBARKA 01,,53.0542,18.541617,,,
121,26901,MOTOARENA 01,,53.015498,18.548179,,,
206,27002,Szosa Bydgoska 02,,53.014975,18.55602,,,
687,00902,Plac Skalskiego 02,,53.01379,18.56118,,,
78,01102,Osiedle Zieleniec 02,,53.013623,18.566067,,,
316,01404,Reja 04,,53.013666,18.570766,,,
709,00501,Sztuki Piękne 01,,53.013829,18.581098,,,
548,09303,Kraszewskiego 03,,53.014093,18.591931,,,
32,58003,Osiedle Młodych 03,,53.013823118826,18.5972410440445,,,
558,34001,Odrodzenia 01,,53.015039,18.601521,,,
416,18602,Dworzec Autobusowy 02,,53.0159063253302,18.6050033569336,,,
245,24902,Przy Kaszowniku 02,,53.017955,18.61257,,,
406,33802,Sąd Rejonowy 02,,53.021561,18.61306,,,
402,08403,Świętopełka 03,,53.023596,18.617925,,,
353,08801,Szpital Miejski 01,,53.024355,18.623137,,,
340,03606,Dworzec Wschodni 06,,53.0249608923709,18.6340570449829,,,
127,03701,Wschodnia 01,,53.029613,18.642062,,,
398,04101,Tofama 01,,53.034585,18.652202,,,
485,04401,Przychodnia 01,,53.0363490066345,18.6574995517731,,,
626,04701,Elana A 01,,53.037042,18.662501,,,
494,04802,ELANA B 02,,53.0367167313055,18.6663025617599,,,
207,08301,OKÓLNA 01,,52.986379,18.616102,,,
304,08102,Brązowa 02,,52.992458105986,18.6160828778748,,,
451,08002,Kniaziewicza 02,,52.995013,18.618732,,,
101,07702,Plebiscytowa 02,,52.9959350323446,18.6235803365707,,,
482,16902,Strzałowa 02,,53.000327,18.62162,,,
722,21204,Dworzec Główny 04,,52.999856,18.615782,,,
218,20904,Plac Armii Krajowej 04,,52.998495,18.605744,,,
486,00101,Plac Rapackiego 01,,53.0103261394539,18.5992741584778,,,
464,18206,Dworzec Autobusowy 06,,53.0154383791029,18.6037319898605,,,
56,33602,Sąd Rejonowy 04,,53.019834,18.613418,,,
468,06902,Kościuszki 02,,53.02466,18.611652,,,
623,64202,Sczanieckiego 02,,53.028148,18.611261,,,
553,07102,Kozacka 02,,53.032035,18.610962,,,
575,42102,Wielki Rów 02,,53.034484,18.612632,,,
361,22401,Polna 01,,53.037742,18.613613,,,
395,22501,Batorego nż 01,,53.036743,18.622699,,,
729,22801,Dębowa Góra 01,,53.0355958063998,18.6311575770378,,,
242,12203,Kanałowa 03,,53.037643,18.637366,,,
273,02901,Fort IV nż. 01,,53.039498,18.632841,,,
487,41001,Mazowiecka 01,,53.042666,18.626401,,,
65,41101,Cmentarz Centr. II Brama nż. 01,,53.044221,18.62275,,,
595,07601,CMENTARZ CENTRALNY 01,,53.042187,18.618051,,,
1858,69105,Koniuchy 05,,53.0325199678109,18.6009049415588,,,
561,36001,Żwirki i Wigury 01,,53.028329,18.590199,,,
41,30701,Szpital Bielany 01,,53.0278049765488,18.5847714543343,,,
309,30801,św. Józefa 01,,53.022488,18.583799,,,
613,31005,Od Nowa 05,,53.017837,18.580203,,,
84,06301,Fałata 01,,53.0151108137243,18.581303358078,,,
658,09501,Kraszewskiego 01,,53.013913,18.592561,,,
698,10301,Plac Armii Krajowej 01,,52.998745,18.606552,,,
739,10101,Dworzec Główny 01,,53.0016817204363,18.6147800087929,,,
419,54403,Strzałowa 03,,52.998577,18.620984,,,
18,17001,Stawki 01,,52.9934843861081,18.6296367645264,,,
724,17201,Stawki Południowe nż. 01,,52.991969,18.633775,,,
234,51301,Zimowa nż. 01,,52.991844,18.642843,,,
725,17401,Ceramika 01,,52.9916987815761,18.6482566595078,,,
706,17602,Włocławska nż. 02,,52.987765,18.665154,,,
86,17701,Solankowa nż. 01,,52.981609,18.670713,,,
77,35201,Matysiaków 01,,52.9759060457019,18.6776429414749,,,
462,35301,Zdrojowa nż. 01,,52.9779474767188,18.6838281154633,,,
134,34301,Gardzielewskiego 01,,52.9816004930874,18.6853891611099,,,
509,42900,Czerniewice 00,,52.9837321552583,18.6839893700964,,,
714,59001,UNIWERSYTET 01,,53.022917,18.565944,,,
83,58903,Szosa Okrężna 03,,53.019573,18.565716,,,
705,58704,Aula UMK 04,,53.017962,18.569566,,,
678,58504,Akademiki 04,,53.017512,18.574232,,,
175,58304,Od Nowa 04,,53.018208,18.578709,,,
662,59104,Fałata 04,,53.016481,18.580257,,,
472,28301,Aleja Solidarności 01,,53.0133559568548,18.6030212044716,,,
97,30301,Plac Św. Katarzyny 01,,53.013035,18.611533,,,
47,34201,Dworzec Miasto 01,,53.0109940672711,18.6194620768505,,,
239,14101,Gołębia 01,,53.015484,18.631452,,,
756,14503,Targowa 03,,53.018349,18.639361,,,
255,15201,Plac Daszyńskiego 01,,53.021508,18.64926,,,
636,15503,Rydygiera 03,,53.023143,18.659682,,,
45,15901,Przy Skarpie 01,,53.024181,18.666531,,,
386,16203,Jamontta 03,,53.025378,18.672195,,,
690,10603,Ślaskiego 03,,53.023506,18.675822,,,
399,10701,Wyszyńskiego 01,,53.023155,18.682265,,,
362,10901,Ligi Polskiej 01,,53.022857,18.690187,,,
122,11101,Kosynierów Kośc. 01,,53.024169,18.695573,,,
102,11302,OLIMPIJSKA P&R 02,,53.02692,18.700676,,,
670,27801,PORT DRZEWNY 01,,53.0198308183857,18.5109107268803,,,
467,27602,Starotoruńska 02,,53.018941,18.52151,,,
277,57002,Centrum Handlowe-Zachód nż. 02,,53.016337,18.536763,,,
651,27402,Oczyszczalnia nż. 02,,53.015914,18.541204,,,
733,27204,Szosa Bydgoska nż. 04,,53.014787,18.556483,,,
873,00908,PLAC SKALSKIEGO 08,,53.013485,18.562501,,,
505,25501,Reja 01,,53.015495,18.571623,,,
668,06402,Akademiki 02,,53.0173456315718,18.5752522945404,,,
498,31102,Od Nowa 02,,53.0190317532642,18.5821589827538,,,
223,30902,św. Józefa 02,,53.022427,18.584022,,,
67,35802,Szpital Bielany 02,,53.027555,18.585507,,,
455,28901,Żwirki i Wigury 04,,53.028213,18.588999,,,
682,63703,Wybickiego 03,,53.024768,18.593476,,,
374,63902,Popiela 02,,53.026259,18.602842,,,
112,64101,Sczanieckiego 01,,53.026755,18.610926,,,
743,07001,Kościuszki 01,,53.024514,18.611238,,,
638,08601,Świętopełka 01,,53.0235637863107,18.6186718940735,,,
630,03504,Dworzec Wschodni 04,,53.0251341882262,18.6341227441109,,,
244,34504,Wschodnia 04,,53.02865,18.643673,,,
512,26101,Donimirskiego 01,,53.0292616299683,18.6521458625793,,,
320,17901,Rubinkowo Centrum 01,,53.02842,18.657672,,,
53,05801,Manhattan 01,,53.0277017345724,18.6670964956284,,,
585,06001,Przybyłów 01,,53.028643,18.672823,,,
524,30504,Ślaskiego 04,,53.0233895482014,18.6760041117668,,,
281,10803,Wyszyńskiego 03,,53.0228394028855,18.6834874749184,,,
479,12605,Ligi Polskiej 05,,53.023633,18.68916,,,
381,12701,Witosa 01,,53.025815,18.687974,,,
10,47400,BIELAWY 00,,53.032989,18.691247,,,
596,25101,Przy Kaszowniku 03,,53.0170326026853,18.6146512627602,,,
31,26702,Garbaty Mostek 02,,53.019104,18.623021,,,
746,26801,Olbrachta nż. 01,,53.021035,18.627133,,,
276,16601,RUBINKOWO P&R 05,,53.0265983205155,18.6803761124611,,,
385,18701,Barwna 01,,53.035507,18.692219,,,
260,18901,Szczecińska 01,,53.038638,18.695404,,,
672,50101,Suwalska 01,,53.041693,18.698253,,,
744,19101,Cegielnia 01,,53.045936,18.701184,,,
719,19301,Bajeczna 01,,53.0493271441054,18.7050068378448,,,
148,51600,NAD STRUGĄ 00,,53.0507809191759,18.712692496711,,,
88,04602,Elana A 02,,53.0371021937123,18.6624911427498,,,
528,14002,Przychodnia 02,,53.036435,18.657603,,,
265,04302,Tofama 02,,53.034972,18.653099,,,
404,03902,Wschodnia 02,,53.029592314092,18.6418649554253,,,
369,03405,Dworzec Wschodni 05,,53.024935,18.633859,,,
382,08902,Szpital Miejski 02,,53.024256,18.621918,,,
752,08504,Świętopełka 04,,53.023746,18.618406,,,
203,33901,Sąd Rejonowy 01,,53.021588,18.61293,,,
233,25001,Przy Kaszowniku 01,,53.018044,18.612434,,,
534,30201,Dworzec Autobusowy 01,,53.0165614415232,18.6065737903118,,,
418,18502,Odrodzenia 02,,53.015127,18.60147,,,
442,57902,Osiedle Młodych 02,,53.0138876658509,18.5971686244011,,,
156,09404,Kraszewskiego 04,,53.014254,18.590924,,,
674,00702,Sztuki Piękne 02,,53.0138715291037,18.5810860991478,,,
34,01303,Reja 03,,53.013736,18.570752,,,
376,01201,Osiedle Zieleniec 01,,53.0136843423954,18.5659376531839,,,
435,01001,Plac Skalskiego 01,,53.0138428863626,18.5612209886312,,,
319,27101,Szosa Bydgoska 01,,53.015073,18.555938,,,
330,26900,MOTOARENA 00,,53.0152273982389,18.5492388904095,,,
1978,71701,Heweliusza 01,,53.0546927072028,18.5976648330688,,,
1963,71503,STROBANDA 03,,53.0538688916189,18.6031472682953,,,
1970,71303,Grasera 03,,53.0510652211683,18.6039733886719,,,
1966,71103,Hubego 03,,53.0469601509288,18.6035978794098,,,
1972,70903,Freytaga 03,,53.0440383152456,18.6014440655708,,,
1982,70705,Wiśniowieckiego 05,,53.0413388274631,18.5992285609245,,,
1968,70505,Elektryczna 05,,53.0392520107917,18.5996925830841,,,
1981,70307,KONIUCHY 07,,53.0337038771193,18.599858880043,,,
484,46201,Długa 01,,53.0317263755288,18.5959079861641,,,
1957,70105,Żwirki i Wigury 05,,53.0285514570797,18.5908473283052,,,
1967,69905,Wybickiego 05,,53.0253722717906,18.5915118455887,,,
1975,69703,Bema 03,,53.0216180874756,18.5958757996559,,,
1973,69503,Targowisko 03,,53.0181725655156,18.5999165475369,,,
306,24702,POZNAŃSKA 02,,52.9717082116508,18.556259572506,,,
409,67902,Poznańska-osiedle 02,,52.9697844046286,18.5565841197968,,,
473,14202,Poznańska nż. 02,,52.968427511909,18.561125099659,,,
152,24502,Baza Transportu nż. 02,,52.9705145245127,18.5649794340134,,,
278,24302,Osiedle Leśny Zakątek nż. 02,,52.974611,18.567651,,,
391,24104,Gniewkowska nż. 04,,52.97687,18.569279,,,
71,55302,Stepowa nż. 02,,52.978885,18.571407,,,
204,23902,Kręta 02,,52.981613,18.574313,,,
566,23702,Polmozbyt nż. 02,,52.984922,18.577807,,,
686,51802,Kluczyki Cmentarz nż. 02,,52.987614,18.580662,,,
540,23602,Kluczyki nż. 02,,52.989283,18.582635,,,
537,50902,Poznańska (komisariat) nż. 02,,52.992019,18.586325,,,
6,23302,Parkowa 02,,52.993343,18.590953,,,
785,55501,Drzymały 01,,52.9911643774393,18.594985306263,,,
257,49202,Letnia 02,,52.9909238126938,18.6045581102371,,,
1703,68603,Hallera 03,,52.9952049291047,18.6022426814873,,,
699,16801,Strzałowa 01,,52.998611,18.622056,,,
114,63202,Rypińska 02,,53.000611,18.656159,,,
552,35105,Plac Daszyńskiego 05,,53.0226474150389,18.6468994617462,,,
854,06209,RUBINKOWO P&R 02,,53.0273323198516,18.6792120337486,,,
14,06102,Przybyłów 02,,53.028931,18.672725,,,
217,05902,Manhattan 02,,53.02767,18.6648,,,
135,18002,Rubinkowo Centrum 02,,53.0288841630405,18.6597928404808,,,
185,26202,Donimirskiego 02,,53.0294965297306,18.6533682166417,,,
401,34603,Wschodnia 03,,53.0288744843579,18.6437237262726,,,
128,03303,Dworzec Wschodni 03,,53.025218,18.633499,,,
565,08702,Świętopełka 02,,53.0239509795896,18.6188596487045,,,
179,33701,Sąd Rejonowy 03,,53.019782,18.612904,,,
1914,25008,Przy Kaszowniku 08,,53.0181023775914,18.611915409565,,,
171,25305,Reja 05,,53.013191,18.571423,,,
230,01701,Przybyszewskiego 01,,53.009826,18.574321,,,
633,01801,Park Miejski 01,,53.009862,18.579649,,,
511,01901,Konopnickiej 01,,53.0099210718474,18.5851550102234,,,
307,02101,Ogród Zoobotaniczny 01,,53.009406,18.591104,,,
792,33101,Wały gen. Sikorskiego 01,,53.012537,18.602588,,,
1960,69604,Targowisko 04,,53.0182492073713,18.5998374223709,,,
1962,69804,Bema 04,,53.020975955334,18.5967206954956,,,
1971,70006,Wybickiego 06,,53.0244494858184,18.5921435058117,,,
1964,70204,Żwirki i Wigury 06,,53.0285841228695,18.5908895730972,,,
21,46302,Długa 02,,53.0315199101022,18.5953822731972,,,
1958,70406,KONIUCHY 06,,53.0338966222203,18.5995678603649,,,
1959,70604,Elektryczna 04,,53.0393036179862,18.599853515625,,,
1976,70804,Wiśniowieckiego 06,,53.0413227009828,18.5992822051048,,,
1965,71004,Freytaga 04,,53.0440238023224,18.6015325784683,,,
1961,71204,Hubego 04,,53.0464240121431,18.6032585799694,,,
1974,71404,Grasera 04,,53.0504203027936,18.6042255163193,,,
1969,71604,STROBANDA 04,,53.0540155996563,18.6031579971313,,,
1980,71802,Heweliusza 00,,53.0549764443446,18.5975387692451,,,
432,29802,WRZOSY I 02,,53.049764,18.573644,,,
182,56502,Czeremchowa nż. 02,,53.050219,18.583459,,,
110,56302,Słoneczna nż. 02,,53.048215,18.591379,,,
703,02401,Chabrowa 01,,53.044705904431,18.5887344181538,,,
609,29502,Lisia 02,,53.0418258443275,18.5803323984146,,,
559,29302,św. Antoniego 02,,53.039353,18.582222,,,
663,29102,Bartkiewiczówny 02,,53.032777,18.587348,,,
584,48503,Żwirki i Wigury 03,,53.0288486745269,18.5903638601303,,,
224,28701,Wybickiego 01,,53.024293,18.591914,,,
1928,28501,Bema 01,,53.0208763271917,18.5965242236853,,,
104,69001,Targowisko 01,,53.0180914863516,18.6002095788717,,,
436,09900,DWORZEC GŁÓWNY 00,,53.000632,18.614442,,,
702,59203,Fałata 03,,53.015839,18.580401,,,
508,58203,Od Nowa 03,,53.01824,18.578534,,,
351,58403,Akademiki 03,,53.017596,18.574149,,,
293,58603,Aula UMK 03,,53.018023,18.56966,,,
407,58804,Szosa Okrężna 04,,53.019663,18.56575,,,
162,59000,UNIWERSYTET 00,,53.022352,18.566002,,,
262,28402,Targowisko 02,,53.0182798640754,18.5999675095081,,,
390,13804,KONIUCHY 04,,53.0339026706928,18.5993137210608,,,
526,47501,Wiśniowieckiego 01,,53.041298,18.597725,,,
513,42501,Ugory nż. 01,,53.04415764354,18.5928851366043,,,
397,29401,Lisia 01,,53.0430756140855,18.5798898339272,,,
79,56903,Lniana 03,,53.048061,18.588403,,,
654,56401,Słoneczna nż. 01,,53.0488498861894,18.5915172100067,,,
430,56601,Czeremchowa nż. 01,,53.0505460626342,18.5854339599609,,,
582,56701,Brzoskwiniowa nż. 01,,53.049549,18.578442,,,
261,29800,WRZOSY I 00,,53.050156,18.572602,,,
284,11202,Kosynierów Kośc. 02,,53.024004,18.694549,,,
51,11702,Ligi Polskiej 02,,53.02258,18.688331,,,
410,11902,Wyszyńskiego 02,,53.02308,18.683318,,,
331,67201,Ślaskiego 01,,53.0235343433463,18.6758203804493,,,
166,30601,Prejsa 01,,53.02443,18.674469,,,
749,16404,Jamontta 04,,53.025446,18.672116,,,
373,16002,Przy Skarpie 02,,53.024262,18.666494,,,
405,15702,Rydygiera 02,,53.023226,18.659656,,,
562,15402,Plac Daszyńskiego 02,,53.021596,18.649113,,,
794,40904,Targowa 04,,53.018071,18.638563,,,
717,14302,Gołębia 02,,53.0153342710698,18.6309478387465,,,
422,31202,Dworzec Miasto 02,,53.01108,18.619417,,,
375,34102,Plac Św. Katarzyny 02,,53.012923,18.612544,,,
73,33202,Wały gen. Sikorskiego 02,,53.012968,18.604114,,,
329,49701,Kolankowskiego 03,,53.029373,18.693768,,,
246,37901,Kusocińskiego nż. 01,,53.031124,18.70206,,,
106,49901,Słupska nż. 01,,53.0321231734953,18.7070882320404,,,
522,38101,Odległa nż 01,,53.035566,18.722775,,,
75,38301,Lubicz Dolny - Lipowa n/ż 01,,53.031859,18.73882,,,
697,00401,Lubicz Dolny - Kolejowa n/ż 01,,53.031455,18.744744,,,
115,44801,Lubicz Dolny - Urząd Gminy n/ż 01,,53.030467,18.752563,,,
634,38501,Lubicz Dolny 01,,53.0308263080717,18.7595307826996,,,
226,38701,Lubicz Górny 01,,53.0255644002378,18.77044117097,,,
454,38900,LUBICZ GÓRNY-OSIEDLE 00,,53.0239687258649,18.7653136253357,,,
107,38901,LUBICZ GÓRNY-OSIEDLE 01,,53.0236682677714,18.7662068843114,,,
266,48401,Lubicz Górny - Bankowa 01,,53.024571,18.770125,,,
339,61901,Krobia-Kalinowa nż. 01,,53.0296681291192,18.7734997272491,,,
750,62101,Krobia-Osiedlowa nż. 01,,53.033378,18.778143,,,
292,62402,Krobia-Poligraficzna nż. 02,,53.037142,18.782816,,,
30,62500,KROBIA nż 00,,53.036482468473,18.7862791121006,,,
637,78101,Szembekowo nż 01,,53.0501139631848,18.8359844684601,,,
187,78001,Szembekowo-skrz. nż. 01,,53.0504299766405,18.8448813557625,,,
608,77801,Szembekowo-OSP nż. 01,,53.0437722442106,18.8429528474808,,,
453,77601,Szembekowo-Osiedlowa nż. 01,,53.0304746637112,18.8347613811493,,,
267,77401,Brzozówka-Olszynowa nż. 1,,53.028468,18.822745,,,
299,77201,Brzozówka-wieś nż. 01,,53.02662,18.816846,,,
282,78401,Brzozówka - sklep nż. 01,,53.024182,18.809123,,,
371,70101,Brzozówka nż. 01,,53.0208242945887,18.8005042076111,,,
603,38802,Lubicz Górny 02,,53.026713,18.77174,,,
317,38602,Lubicz Dolny 02,,53.031229,18.757696,,,
735,38202,Płocka nż. 02,,53.03421,18.716088,,,
327,50002,Słupska nż. 02,,53.032055,18.704898,,,
429,60103,Kusocińskiego nż. 03,,53.029827,18.701376,,,
550,11401,OLIMPIJSKA P&R 01,,53.0263333517529,18.7021241337061,,,
348,11604,Kosynierów Kośc. 04,,53.024061,18.694134,,,
160,06200,RUBINKOWO P&R 00,,53.0275291263412,18.6788874864578,,,
532,36901,SZUBIŃSKA 01,,52.976213,18.556124,,,
671,36802,Bliska nż. 02,,52.976292,18.560699,,,
332,36402,Gniewkowska nż. 02,,52.976457,18.566426,,,
280,37302,63. Pułku Piechoty 02,,52.995248,18.607443,,,
189,37102,Biała 02,,52.995314,18.613572,,,
547,08201,Brązowa 01,,52.992548851444,18.6159564965188,,,
441,53302,Andersa nż. 02,,52.990613,18.617055,,,
279,51402,Dandelskiego 02,,52.991221,18.626243,,,
323,43302,Zakole 02,,52.9952602305893,18.6311495304108,,,
458,65004,Gen. Grota Roweckiego nż. 04,,52.997556,18.634416,,,
677,43502,Telimeny 02,,53.000765,18.641984,,,
536,21802,Grzybowa nż. 02,,53.002736,18.636869,,,
400,65601,Otłoczyńska nż. 01,,53.003625,18.658166,,,
1039,59002,UNIWERSYTET 02,,53.0222360096332,18.5658994317055,,,
70,46802,Szosa Okrężna 02,,53.019045,18.566613,,,
530,06602,Aula UMK 02,,53.017413,18.57064,,,
352,35902,Boboli 02,,53.028269,18.593491,,,
476,36102,Lecha 02,,53.0284357151316,18.5996013879776,,,
574,46401,Lotników 01,,53.028695,18.608163,,,
589,35401,Dworzec Wschodni 01,,53.0239219402142,18.6345505714417,,,
116,35601,Plac Daszyńskiego II 07,,53.02207,18.645982,,,
433,15303,Plac Daszyńskiego 03,,53.0213179967599,18.649930357933,,,
392,48205,Rydygiera 05,,53.023781,18.658275,,,
347,42902,Czerniewice 02,,52.9834543372707,18.6848795413971,,,
62,43002,Zdrojowa nż. 02,,52.9779119463074,18.683232665062,,,
716,43102,Matysiaków 02,,52.975972,18.676083,,,
732,50702,Solankowa nż. 02,,52.98253,18.67015,,,
568,43201,Włocławska nż. 01,,52.989642,18.663921,,,
438,17502,Ceramika 02,,52.991971,18.647164,,,
253,66402,Zimowa nż. 02,,52.992123,18.641304,,,
227,17302,Stawki Południowe nż. 02,,52.992236,18.636496,,,
271,17102,Stawki 02,,52.9945531303548,18.6280488967896,,,
38,07801,Plebiscytowa 01,,52.9962256135843,18.6238431930542,,,
364,07901,Kniaziewicza 01,,52.99515045323,18.6182856559753,,,
145,09602,Kraszewskiego 02,,53.014239,18.59266,,,
141,26402,Fałata 02,,53.015313,18.581188,,,
380,48802,Koniuchy 02,,53.033362,18.601882,,,
318,42201,Wielki Rów 01,,53.0333974186996,18.6114406585693,,,
357,07201,Kozacka 01,,53.030587,18.610488,,,
679,11003,Ligi Polskiej 03,,53.022751,18.690547,,,
8,11503,Kosynierów Kośc. 03,,53.024119,18.69593,,,
85,14901,Nad Rzeczką nż 01,,53.051685,18.70472,,,
655,33401,Meprozet nż. 01,,53.052471,18.702461,,,
109,62602,WAPIENNA 02,,53.0527536523778,18.6958826333284,,,
322,13602,Osiedle Tysiąclecia 02,,53.029613,18.601501,,,
105,47701,MAZOWIECKA (pętla) 01,,53.0453984769705,18.625869601965,,,
20,03102,Mazowiecka 02,,53.0426805294979,18.6261177062988,,,
516,03002,Fort IV nż. 02,,53.0395132715787,18.6325281858444,,,
506,12402,Kociewska 02,,53.0423580087828,18.6366319656372,,,
387,12502,Kanałowa 02,,53.036777,18.636499,,,
4,22902,Dębowa Góra 02,,53.0358861206824,18.6291110515594,,,
448,22602,Batorego nż 02,,53.037237,18.62125,,,
143,07303,Polna 03,,53.037419,18.612498,,,
573,47700,MAZOWIECKA (pętla) 00,,53.0451348330896,18.6260104179382,,,
125,54302,Młyn Wiedzy nż 02,,53.02524,18.627951,,,
57,56101,Zaułek Dworcowy nż. 01,,53.029795,18.62301,,,
118,55701,Towarowa 01,,53.03274,18.626151,,,
298,47401,BIELAWY 01,,53.03268,18.690571,,,
137,64003,Sczanieckiego 03,,53.027554,18.610015,,,
275,63801,Popiela 01,,53.026257,18.600257,,,
840,28602,Wybickiego 02,,53.025579,18.5918,,,
715,64301,Od Nowa 01,,53.018176,18.578665,,,
723,06501,Akademiki 01,,53.017491,18.574191,,,
283,06701,Aula UMK 01,,53.017948,18.569542,,,
680,46901,Szosa Okrężna 01,,53.019576,18.565681,,,
445,57301,Łukasiewicza 01,,53.016907,18.560114,,,
5,27303,Szosa Bydgoska nż. 03,,53.0151834269538,18.5561549663544,,,
13,27501,Oczyszczalnia nż. 01,,53.016245,18.541006,,,
183,57101,Centrum Handlowe-Zachód nż. 01,,53.016877,18.534557,,,
367,27701,Starotoruńska 01,,53.01913,18.519987,,,
477,27800,PORT DRZEWNY 00,,53.0200571044592,18.5105506403191,,,
238,42303,Wielki Rów 03,,53.034294,18.611009,,,
621,55901,Mocarskiego 01,,53.027063,18.655916,,,
173,56004,Rydygiera 04,,53.024315,18.657367,,,
243,18303,Odrodzenia 03,,53.015121,18.600966,,,
188,00803,Sztuki Piękne 05,,53.013942,18.578943,,,
269,29901,Lotnisko nż. 01,,53.027269,18.565709,,,
578,55001,Bluszczowa nż. 01,,53.0310537462458,18.5661515593529,,,
296,54801,Orzechowa nż. 01,,53.034619,18.576435,,,
529,54701,PRZY LESIE 01,,53.034994,18.583471,,,
551,68202,Przysiecka nż. 02,,53.058713,18.546752,,,
177,59902,os. Leśne - Polana nż. 02,,53.057907,18.560415,,,
742,29702,Zagonowa nż. 02,,53.046845,18.576643,,,
611,26501,Lniana 01,,53.0476534934545,18.585986495018,,,
488,13301,Lelewela 01,,53.024137,18.601512,,,
629,13101,Dekerta 01,,53.020893,18.601907,,,
470,13001,Legionów 01,,53.017537,18.603698,,,
755,32909,Dworzec Autobusowy 09,,53.0153633458736,18.6057657748461,,,
126,15601,Rydygiera 01,,53.022866,18.660015,,,
643,16301,Jamontta 01,,53.024716,18.670234,,,
581,31501,Przy Skarpie 03,,53.023547,18.667369,,,
556,36601,Wianki 01,,53.018611,18.674787,,,
605,31601,Turystyczna nż. 01,,53.015952,18.680192,,,
593,31801,Wieżowa nż. 01,,53.014148,18.683161,,,
466,40801,Księżycowa nż. 01,,53.011443,18.688791,,,
844,32101,Dożynkowa nż. 01,,53.007851,18.695215,,,
358,59301,Dyngusowa nż. 01,,53.008447223067,18.7035966664553,,,
748,60301,Fantazyjna nż. 01,,53.00836,18.707743,,,
615,59601,Skierki nż. 01,,53.005555,18.705028,,,
325,62801,Wodna nż. 01,,53.002601,18.70146,,,
354,32500,DRWĘCA 00,,53.001609084489,18.7010210752487,,,
434,63402,Lipnowska nż. 02,,52.993011,18.65212,,,
408,20504,PLAC ŚW. KATARZYNY 04,,53.013682,18.613886,,,
628,63101,Arena Toruń 01,,53.018825,18.591952,,,
210,51601,NAD STRUGĄ 01,,53.0510684457359,18.7123560905457,,,
133,19402,Bajeczna 02,,53.048949,18.704145,,,
94,19202,Cegielnia 02,,53.046493,18.700978,,,
424,50202,Suwalska 02,,53.040005,18.696256,,,
692,19002,Szczecińska 02,,53.037553,18.693772,,,
52,18802,Barwna 02,,53.034468,18.690584,,,
378,16702,RUBINKOWO P&R 04,,53.026891,18.679424,,,
502,02202,Ogród Zoobotaniczny 02,,53.009487,18.591117,,,
606,02002,Konopnickiej 02,,53.0099485068252,18.5851469635963,,,
326,26301,Mickiewicza 01,,53.011389,18.580238,,,
154,05103,Zajezdnia Tramwajowa 03,,53.013145,18.580294,,,
594,35006,Plac Daszyńskiego 06,,53.0210017698758,18.6479884386063,,,
68,63301,Rypińska 01,,52.999675,18.654983,,,
346,63501,Lipnowska nż. 01,,52.991824,18.652932,,,
23,46501,Lotników 02,,53.028839802394,18.6092868447304,,,
372,48101,Kanałowa 01,,53.036827,18.638796,,,
394,53802,Hutowo nż. 02,,53.041715,18.652891,,,
333,47002,Przychodnia 04,,53.0361715944875,18.6563086509705,,,
310,04204,Tofama 04,,53.034456,18.651168,,,
225,49501,gen. Orlicza-Dreszera nż. 01,,52.990473,18.607598,,,
3,21902,RUDAK 02,,53.0012136199651,18.6426669359207,,,
264,21602,Podgórska 02,,53.0026340471079,18.6270108819008,,,
598,21402,Łódzka 02,,53.001124,18.621039,,,
478,01602,Polna 02,,53.038252109205,18.612280189991,,,
35,22302,Rolnicza 02,,53.0399567662034,18.6071571707726,,,
324,23001,Traktorowa 01,,53.039857,18.603603,,,
258,43801,OSIEDLE LEŚNE - POLANA 01,,53.059093,18.560633,,,
660,48703,Koniuchy 03,,53.032773,18.599073,,,
403,47301,KOPANINO 01,,52.984400606858,18.744124174118,,,
120,57802,Kopanino - Przy Dębie nż. 02,,52.9858635698958,18.7393391132355,,,
712,57602,Złotoria - Akacjowa nż. 02,,52.988756,18.728826,,,
349,32802,Złotoria nż. 02,,52.989507,18.72357,,,
647,40202,Złotoria - Lipowa nż. 02,,52.991728,18.716834,,,
328,40002,Złotoria - Toruńska nż. 02,,52.995261,18.708535,,,
657,32702,Złotoria - Pomorska nż. 02,,52.998216,18.701301,,,
383,62902,Wodna nż. 02,,53.0032215737628,18.7024855613709,,,
24,59702,Skierki nż. 02,,53.005578,18.705241,,,
412,59502,Fantazyjna nż. 02,,53.008292,18.708034,,,
237,59402,Dyngusowa nż. 02,,53.008657,18.704245,,,
646,67602,Balladyny nż. 02,,53.008159,18.697228,,,
251,32102,Dożynkowa nż. 02,,53.008234,18.693562,,,
549,40502,Księżycowa nż. 02,,53.012045,18.688134,,,
249,31902,Wieżowa nż. 02,,53.014478,18.682565,,,
624,31702,Turystyczna nż. 02,,53.016483,18.680746,,,
539,36502,Wianki 02,,53.0187074421524,18.6754810810089,,,
726,67502,Gałczyńskiego nż. 02,,53.0161951585722,18.5873007774353,,,
579,63002,Arena Toruń 02,,53.018442,18.591941,,,
1704,68704,Hallera 04,,52.9951301286915,18.6022057341343,,,
228,49301,Letnia 01,,52.990189,18.603104,,,
161,55402,Drzymały 02,,52.991122399795,18.595165014267,,,
250,23401,Parkowa 01,,52.993933,18.593035,,,
616,50801,Poznańska (komisariat) nż. 01,,52.991929,18.5858,,,
460,23501,Kluczyki nż. 01,,52.989952,18.583147,,,
197,51001,Kluczyki Cmentarz nż. 01,,52.986998268945,18.5797569367974,,,
377,23801,Polmozbyt nż. 01,,52.98475,18.577349,,,
12,24001,Kręta 01,,52.981208,18.573612,,,
753,55201,Stepowa nż. 01,,52.978473,18.570722,,,
176,36301,Gniewkowska nż. 01,,52.976623,18.567407,,,
61,36701,Bliska nż. 01,,52.976455,18.562302,,,
287,36900,SZUBIŃSKA 00,,52.976405,18.555447,,,
648,65203,Wiśniowieckiego 03,,53.041148,18.599353,,,
167,64602,Freytaga 02,,53.044057,18.601354,,,
256,14802,Hubego 02,,53.0469649882409,18.6034959554672,,,
639,06802,Grasera 02,,53.0510362000488,18.6038929224014,,,
196,68502,STROBANDA 02,,53.0525251194869,18.6045621335506,,,
286,41904,Katarzynka PKP nż. 04,,53.052471,18.616239,,,
91,39800,FORTECZNA 00,,53.055582603797,18.6171591281891,,,
241,39502,Paderewskiego nż. 02,,52.990301,18.590212,,,
170,37803,Drzymały 03,,52.990312,18.594325,,,
205,67303,Starotoruńska 03,,53.0199030247764,18.5203528404236,,,
169,76101,Przysiek n/ż 01,,53.030988,18.500451,,,
601,76201,Rozgarty n/ż 01,,53.037812,18.481378,,,
291,76301,Rozgarty-Kwiatowa n/ż 01,,53.040706,18.479291,,,
209,76401,ROZGARTY - STARA SZKOŁA 01,,53.043875,18.489532,,,
236,39003,Rypińska 03,,53.000292,18.65499,,,
95,65702,Kmicica nż. 02,,53.005308,18.65619,,,
564,25902,Skrzetuskiego nż. 02,,53.005397,18.648946,,,
184,25702,Szkoła nż. 02,,53.006041,18.641503,,,
295,21701,Grzybowa nż. 01,,53.002468,18.637796,,,
22,43601,Telimeny 01,,53.000227,18.640781,,,
98,65105,Gen. Grota Roweckiego nż. 05,,52.9972264895541,18.6337459087372,,,
158,43401,Zakole 01,,52.9946354645394,18.6301812529564,,,
302,51501,Dandelskiego 01,,52.9912305728725,18.6243259906769,,,
215,54603,Kniaziewicza 03,,52.9946629092327,18.6169955134392,,,
297,37001,Biała 01,,52.995464,18.610783,,,
627,37201,63. Pułku Piechoty 01,,52.995326,18.607194,,,
635,19501,Kresowa 01,,53.052726,18.709867,,,
411,48301,Toruńska 01,,53.054336,18.712019,,,
89,09003,Grębocin n/ż 03,,53.058481,18.716053,,,
737,61501,KOLONIA PAPOWSKA 01,,53.0668151618126,18.6922764033079,,,
146,19701,Grębocin n/ż 01,,53.058251,18.719534,,,
39,20001,Ośrodek Zdrowia n/ż 01,,53.061268,18.728774,,,
113,20201,Rogówko - Ogrodnik nż. 01,,53.065519,18.742374,,,
263,20401,Rogówko n/ż 01,,53.07074,18.757094,,,
740,39101,Brzeźno n/ż 01,,53.087895,18.772619,,,
738,39301,GRONOWO 01,,53.102805,18.790478,,,
92,39202,Brzeźno n/ż 02,,53.08839,18.772686,,,
425,63602,Rogówko n/ż 02,,53.07056,18.756067,,,
140,20302,Rogówko - Ogrodnik nż. 02,,53.065409,18.741564,,,
199,20102,Ośrodek Zdrowia n/ż 02,,53.061147,18.727723,,,
1,19802,Grębocin n/ż 02,,53.057149,18.716862,,,
431,19602,Kresowa 02,,53.053272,18.710147,,,
150,33302,Meprozet nż. 02,,53.0524227428076,18.7020885944366,,,
163,15002,Nad Rzeczką nż 02,,53.051463,18.70499,,,
599,48003,Garbaty Mostek 03,,53.019612,18.623607,,,
519,37704,Drzymały 04,,52.990414,18.594723,,,
721,39401,Paderewskiego nż. 01,,52.990406,18.59024,,,
812,48204,Barwna 04,,53.034650219036,18.6923114459514,,,
632,57203,PLAC SKALSKIEGO 03,,53.014685,18.560551,,,
515,24203,Gniewkowska nż. 03,,52.975993,18.568209,,,
602,24401,Osiedle Leśny Zakątek nż. 01,,52.974105,18.567199,,,
99,24601,Baza Transportu nż. 01,,52.9708456588904,18.5652074217796,,,
7,14601,Poznańska nż. 01,,52.969284,18.562627,,,
469,67801,Poznańska-osiedle 01,,52.969588950089,18.5570159554482,,,
711,24700,POZNAŃSKA 00,,52.9713023975408,18.5559933638587,,,
669,04003,Tofama 03,,53.0349361405691,18.6537230014801,,,
713,47101,Przychodnia 05,,53.0368554336563,18.6566680669785,,,
221,53901,Hutowo nż. 01,,53.041889,18.652048,,,
212,71001,OBROWO 01,,52.9715999896834,18.8781595230103,,,
48,70901,Kawęczyn nż. 01,,52.9856116725063,18.8643836975098,,,
355,70701,Zawały I nż. 01,,52.996571,18.842542,,,
664,78301,Dobrzejewice-staw nż. 01,,53.0004129949816,18.8333773612976,,,
474,70501,Dobrzejewice nż. 01,,53.00619,18.836079,,,
168,70301,Głogowo nż. 01,,53.013663,18.821285,,,
28,67404,Lisia nż. 04,,53.0424725039129,18.5787552595139,,,
701,41801,Krucza nż. 01,,53.0425095938194,18.5761079192162,,,
335,41501,WRZOSOWA 01,,53.042063,18.572211,,,
305,41601,Jastrzębia nż. 01,,53.0406147425503,18.573911190033,,,
229,41701,Myśliwska nż. 01,,53.040638,18.580161,,,
499,02703,Dębowa Góra 03,,53.034667,18.629627,,,
619,55802,Towarowa 02,,53.0329280492134,18.627056479454,,,
644,56202,Zaułek Dworcowy nż. 02,,53.02887,18.62372,,,
366,54201,Młyn Wiedzy nż 01,,53.0251415771482,18.6278343200684,,,
270,71101,Obrowo-Osiedle nż. 01,,52.963123,18.863043,,,
576,71301,Kolonia Obrowska nż. 01,,52.95513,18.848132,,,
531,71501,Sąsieczno nż. 01,,52.9507727178671,18.8433766365051,,,
119,71703,Osiek-Siciny I nż. 01,,52.940056,18.832784,,,
356,71901,Osiek-Siciny II nż. 01,,52.93314,18.815538,,,
420,72101,Osiek-Szkoła nż. 01,,52.9263168359386,18.8081082701683,,,
15,72301,Osiek nż. 01,,52.928249,18.80187,,,
159,72501,Dzikowo skrz. nż. 01,,52.9318529088771,18.7852504849434,,,
683,72701,Dzikowo nż. 01,,52.9308424343686,18.7678322196007,,,
290,72901,Silno IV nż. 01,,52.933244,18.748208,,,
396,73101,Silno III nż. 01,,52.9409073242959,18.7342777848244,,,
642,73301,Silno II nż. 01,,52.9472690152609,18.7288865447044,,,
213,73501,Silno I nż. 01,,52.9529252209745,18.7258958816528,,,
641,73701,Grabowiec-Wieś nż. 01,,52.9661416975028,18.7218269705772,,,
66,73901,Grabowiec II nż. 01,,52.971511,18.71783,,,
147,74201,Grabowiec I nż. 01,,52.977755,18.710607,,,
274,78701,Złotoria II nż. 01,,52.981732,18.707,,,
452,74301,Złotoria I nż. 01,,52.9873297127243,18.7037354707718,,,
201,67703,Drwęca nż. 03,,53.002533,18.699675,,,
74,32302,Kogucia nż. 02,,53.0045192691377,18.697657585144,,,
421,50603,Księżycowa nż. 03,,53.01252,18.689177,,,
427,34901,WSCHODNIA (pętla) 01,,53.028895,18.643755,,,
538,62501,KROBIA nż 01,,53.0365425463259,18.7862858176231,,,
415,62301,Krobia-Poligraficzna nż. 01,,53.0370344557984,18.7825655937195,,,
569,62202,Krobia-Osiedlowa nż. 02,,53.03351,18.778142,,,
193,62002,Krobia-Kalinowa nż. 02,,53.0301939913843,18.7739503383636,,,
728,38402,Lubicz Dolny - Lipowa n/ż 02,,53.031936065966,18.7395107746124,,,
661,55102,Odległa nż 02,,53.0356538694127,18.7206012010574,,,
191,38002,Kusocińskiego nż. 02,,53.0306440340593,18.6984971165657,,,
181,49802,Kolankowskiego 02,,53.029781,18.694116,,,
659,01502,Reja 02,,53.014582,18.571439,,,
707,00604,Sztuki Piękne 04,,53.0139731905103,18.5830011963844,,,
457,12301,Kociewska 01,,53.042001,18.636349,,,
542,06201,RUBINKOWO P&R 01,,53.0272460150831,18.6793059110641,,,
26,54103,OLIMPIJSKA P&R nż. 03,,53.027388,18.703394,,,
344,74604,Lubicz Górny 04,,53.025443,18.775086,,,
414,70002,Brzozówka nż. 02,,53.020183,18.801782,,,
247,70202,Głogowo nż. 02,,53.013958,18.82006,,,
2029,81104,Dobrzejewice nż. 04,,53.0079368311799,18.8353085517883,,,
2062,87102,Dobrzejewice - Cmentarz nż 02,,53.0037187054563,18.8485962152481,,,
2042,84502,Łążyn II nż 02,,53.0014460566955,18.8643729686737,,,
2027,81002,Łążyn I nż 02,,53.0002096080443,18.8907873630524,,,
2057,89602,Zębowo III nż 02,,53.0041125329936,18.9059042930603,,,
2031,80802,Zębowo - Szkoła nż 02,,53.0065399807833,18.9227056503296,,,
2059,85502,Zębowo II nż 02,,52.99533933469,18.9204847812653,,,
2055,89202,Zębowo I nż 02,,52.9911934388615,18.9165607094765,,,
2058,80602,Kazimierzewo nż 02,,52.9842294401746,18.9138114452362,,,
2023,80402,Bartoszewo nż 02,,52.9754570471444,18.9107751846313,,,
2040,80202,Zębówiec nż 02,,52.9694500314492,18.9050607383251,,,
545,65502,Bema 02,,53.021896,18.595931,,,
123,54902,Orzechowa nż. 02,,53.0349361405691,18.5756707191467,,,
567,30102,Bluszczowa nż. 02,,53.030312,18.56561,,,
557,30002,Lotnisko nż. 02,,53.026437,18.565304,,,
747,74503,Złotoria - Pomorska nż. 03,,52.9982870699018,18.7009057402611,,,
691,32601,Złotoria - Pomorska nż. 01,,52.9967357403645,18.7045240402222,,,
625,39901,Złotoria - Toruńska nż. 01,,52.9942528514104,18.7097597122192,,,
518,40101,Złotoria - Lipowa nż. 01,,52.9916616479677,18.7167656421661,,,
72,47201,Złotoria nż. 01,,52.989276,18.72414,,,
734,57501,Złotoria - Akacjowa nż. 01,,52.988588,18.729105,,,
440,57701,Kopanino - Przy Dębie nż. 01,,52.985702,18.739515,,,
741,24801,GLINKI 01,,52.964902,18.554652,,,
610,32502,DRWĘCA 02,,53.001748,18.70096,,,
811,50506,Ligi Polskiej 06,,53.021948,18.689185,,,
211,59803,Dożynkowa nż. 3,,53.007106,18.694828,,,
248,32201,Kogucia nż. 01,,53.004271,18.6977,,,
25,32401,Drwęca nż. 01,,53.0022127662052,18.6997953057289,,,
708,74402,Złotoria I nż. 02,,52.986972,18.703776,,,
2,78602,Złotoria II nż. 02,,52.9817232239068,18.7068843841553,,,
69,74102,Grabowiec I nż. 02,,52.978317,18.709887,,,
214,74002,Grabowiec II nż. 02,,52.970841,18.718443,,,
754,73802,Grabowiec-Wieś nż. 02,,52.9653387193521,18.7218420541348,,,
303,73602,Silno I nż. 02,,52.951637,18.72642,,,
315,73402,Silno II nż. 02,,52.947017,18.729015,,,
202,73202,Silno III nż. 02,,52.941201,18.733745,,,
507,73002,Silno IV nż. 02,,52.932957,18.748789,,,
426,72802,Dzikowo nż. 02,,52.930663,18.768522,,,
614,72602,Dzikowo skrz. nż. 02,,52.931708,18.784793,,,
27,72402,Osiek nż. 02,,52.927688,18.803183,,,
588,72202,Osiek-Szkoła nż. 02,,52.9263369134652,18.8084112447584,,,
730,72002,Osiek-Siciny II nż. 02,,52.933253,18.816222,,,
571,71804,Osiek-Siciny I nż. 02,,52.9404547293382,18.8328757882118,,,
87,71602,Sąsieczno nż. 02,,52.9514061983742,18.844438791275,,,
704,71402,Kolonia Obrowska nż. 02,,52.955553,18.848774,,,
689,71202,Obrowo-Osiedle nż. 02,,52.963125,18.863222,,,
222,53001,KOŁOWA 01,,53.043872,18.685644,,,
727,53101,Na Zapleczu 01,,53.040036,18.686725,,,
82,05301,Katarzynki nż. 01,,53.0374457200663,18.6876341700554,,,
700,05402,Chrzanowskiego nż. 02,,53.036457,18.685114,,,
336,05602,Bukowa 02,,53.036168,18.674521,,,
311,67002,Niesiołowskiego nż. 02,,53.0303214232994,18.6774551868439,,,
590,03208,DWORZEC WSCHODNI 08,,53.025249261689,18.6333341896534,,,
343,42402,Traktorowa 02,,53.039842,18.606478,,,
510,22201,Rolnicza 01,,53.039281,18.610104,,,
165,21900,RUDAK 00,,53.0011361407768,18.6426749825478,,,
345,42602,Liliowa nż. 02,,53.0435061715332,18.5888323187828,,,
190,47602,Wiśniowieckiego 02,,53.04027,18.598541,,,
300,13701,KONIUCHY 01,,53.033472,18.599667,,,
144,39801,FORTECZNA 01,,53.055335,18.617033,,,
363,68301,Katarzynka PKP nż. 01,,53.052217,18.614626,,,
617,68401,Rybińskiego 01,,53.052849,18.609025,,,
437,27901,STROBANDA 01,,53.051767,18.603498,,,
710,18401,Grasera 01,,53.050133,18.603983,,,
81,64801,Hubego 01,,53.04622,18.60274,,,
439,64701,Freytaga 01,,53.043563,18.600841,,,
443,13501,Osiedle Tysiąclecia 01,,53.029531,18.601236,,,
684,77003,Brzozówka nż. 03,,53.0214277075862,18.8031515479088,,,
136,78502,Brzozówka - sklep nż. 02,,53.0241816805993,18.8093045353889,,,
59,77102,Brzozówka-wieś nż. 02,,53.026462,18.816617,,,
667,77302,Brzozówka-Olszynowa nż. 2,,53.028417970694,18.8228014111519,,,
60,77502,Szembekowo-Osiedlowa nż. 02,,53.0304327242842,18.8348069787025,,,
631,77702,Szembekowo-OSP nż. 02,,53.043611,18.843014,,,
736,77902,Szembekowo-skrz. nż. 02,,53.050421,18.844947,,,
2041,88701,Mierzynek nż 01,,53.0407808477367,18.8136550784111,,,
2061,83002,Mierzynek - Leśna nż. 02,,53.0391987908077,18.8052302598953,,,
2044,82701,Krobia - Radosna nż 01,,53.0399519281048,18.7863716483116,,,
2053,82501,Młyniec II Nad Doliną nż 01,,53.0501913544494,18.7948930263519,,,
2051,92301,Młyniec II Dolina Drwęcy nż Dolina Drwęcy,,53.0571559991767,18.8044792413712,,,
2037,82301,Młyniec II nż 01,,53.0651784548734,18.817238509655,,,
2046,82101,Młyniec I nż 01,,53.0675041557332,18.8063192367554,,,
2054,81901,Młyniec I Żwirownia nż 01,,53.0578129069873,18.7900301814079,,,
2028,81802,Jedwabno nż 02,,53.0512457965838,18.7688300013542,,,
2038,81501,Jedwabno Widokowa nż 01,,53.0439157615183,18.7659573554993,,,
178,40401,EC GRĘBOCIN 01,,53.0457096875497,18.6968502402306,,,
11,52404,Chełmska 04,,53.040238,18.698399,,,
583,53501,Krynicka 01,,53.036187,18.705064,,,
543,52201,Ostrołęcka 01,,53.036115,18.700174,,,
294,52004,Pilska 04,,53.037907,18.69544,,,
600,76501,Rozgarty-Leśna n/ż 01,,53.046154,18.493574,,,
96,76601,Rozgarty-Wróblowa n/ż 01,,53.0416258778039,18.4991928935051,,,
124,76701,Przysiek-Błotka n/ż 01,,53.0367151184848,18.5048148036003,,,
618,76801,Przysiek-Szkoła n/ż 01,,53.032194,18.502405,,,
54,76902,Przysiek n/ż 02,,53.030476,18.501315,,,
783,54002,MOTOARENA 02,,53.0156731596547,18.5487453639507,,,
828,31403,Dworzec Miasto 03,,53.010882,18.619376,,,
883,56803,Gołębia 03,,53.015382,18.631453,,,
459,14401,Targowa 01,,53.0170681009206,18.6369431018829,,,
563,09903,DWORZEC GŁÓWNY 03,,53.001094,18.614714,,,
731,10202,Plac Armii Krajowej 02,,52.998933,18.606742,,,
342,43800,OSIEDLE LEŚNE-POLANA 00,,53.0591686040802,18.5613772273064,,,
493,39703,Katarzynka PKP nż. 03,,53.0513844521928,18.6155927181244,,,
58,51101,Forteczna nż. 01,,53.047813,18.616118,,,
762,64402,Fort V nż. 02,,53.041849,18.608501,,,
1762,40702,Elektryczna 02,,53.0393136549451,18.5990259470236,,,
503,00303,Barwna 03,,53.035394,18.690523,,,
570,05204,Bukowa 04,,53.037166,18.673292,,,
93,05004,Elana B nż. 04,,53.037212,18.668504,,,
389,04503,Elana A nż. 03,,53.037148965067,18.6610400676727,,,
16,65802,GLINIECKA 02,,53.003846,18.667205,,,
341,26002,DZIAŁKI RUDAK 02,,53.005518,18.659779,,,
314,53702,Rudacka nż. 02,,53.0033200321178,18.6312836408615,,,
1927,20606,PLAC ŚW. KATARZYNY 09,,53.0142442864236,18.6131143569946,,,
2052,81402,Lubicz - Tęczowa nż 02,,53.0339216225678,18.7625281512737,,,
2035,81602,Jedwabno Widokowa nż 02,,53.0438480343091,18.7660270929337,,,
2050,82002,Młyniec I Żwirownia nż 02,,53.0577766362652,18.7900154292583,,,
2060,82202,Młyniec I nż 02,,53.0674912623809,18.8063728809357,,,
2030,82402,Młyniec II nż 02,,53.0653799238798,18.8171848654747,,,
2039,90002,Młyniec II Dolina Drwęcy nż 02,,53.0571463268397,18.8043451309204,,,
2047,82602,Młyniec II Nad Doliną nż 02,,53.0503461365618,18.7948179244995,,,
2065,82802,Krobia - Radosna nż 02,,53.0399777312909,18.786261677742,,,
2063,83402,KROBIA nż 02,,53.0364663401761,18.7857922911644,,,
2049,82901,Mierzynek - Leśna nż. 01,,53.0388843077428,18.8022208213806,,,
2020,78802,Mierzynek nż 02,,53.0407824604052,18.8138374686241,,,
2033,83202,Szembekowo nż 02,,53.0500728490189,18.8363103568554,,,
142,19904,GRĘBOCIN (pętla) 04,,53.057688,18.718947,,,
164,15103,Poznańska-osiedle 03,,52.967731,18.5592,,,
463,70402,Dobrzejewice nż. 02,,53.0066803941319,18.8361990451813,,,
186,78202,Dobrzejewice-staw nż. 02,,53.000302,18.833428,,,
29,70602,Zawały I nż. 02,,52.9960803232089,18.8430574536324,,,
597,70802,Kawęczyn nż. 02,,52.984841,18.865215,,,
1977,69401,Gminna nż 01,,53.0403196220484,18.7168139219284,,,
1939,69302,Przelot nż 02,,53.0378843976284,18.7251824140549,,,
149,10503,Przychodnia 03,,53.036295783067,18.6579769849777,,,
444,04903,Elana B nż. 03,,53.0369360743528,18.6677241325378,,,
496,05501,Bukowa 01,,53.036883,18.675832,,,
235,62701,Chrzanowskiego nż. 01,,53.035727,18.686592,,,
449,66303,Chrobrego nż. 03,,53.031215,18.629962,,,
745,41402,Fabryczna nż. 02,,53.028969,18.630325,,,
240,66605,Tofama 05,,53.0342522709612,18.652800321579,,,
450,66001,Chrobrego nż. 01,,53.031772,18.628806,,,
138,66801,Urząd Celny nż. 01,,53.030879,18.623903,,,
153,54503,Letnia 03,,52.990141,18.604702,,,
520,49402,gen. Orlicza-Dreszera nż. 02,,52.990314,18.609176,,,
384,66704,Sczanieckiego 04,,53.027368,18.612217,,,
490,66902,Urząd Celny nż. 02,,53.03051,18.623817,,,
130,66102,Chrobrego nż. 02,,53.03159,18.631316,,,
652,51903,Pilska 03,,53.037532,18.696135,,,
337,52102,Ostrołęcka 02,,53.035682,18.701053,,,
751,53402,Krynicka 02,,53.036294,18.705079,,,
301,52303,Chełmska 03,,53.040121,18.698745,,,
350,40301,Ceramiczna 01,,53.046755,18.700541,,,
869,15609,Rydygiera 09,,53.023425,18.659512,,,
857,48604,Plac Daszyńskiego 04,,53.02146,18.646341,,,
640,14702,Targowa 02,,53.0171778225542,18.6365246772766,,,
771,13904,Gołębia 04,,53.015611,18.631367,,,
852,31304,Dworzec Miasto 04,,53.0111579957534,18.6192821336731,,,
1789,00609,Sztuki Piękne 09,,53.0139731905103,18.5810646414757,,,
809,07404,Polna 04,,53.038582,18.613513,,,
461,41301,Fabryczna nż. 01,,53.029881,18.630437,,,
446,66204,Chrobrego nż. 04,,53.032869,18.6301,,,
2022,80101,Zębówiec nż 01,,52.969193192323,18.9046543836594,,,
2056,80301,Bartoszewo nż 01,,52.9753019961992,18.9108610153198,,,
2021,80501,Kazimierzewo nż 01,,52.9841842262205,18.9138543605804,,,
2048,89801,Zębowo I nż 01,,52.9912111986098,18.9166653156281,,,
2043,88901,Zębowo II nż 01,,52.9952699168135,18.9205008745193,,,
2045,80701,Zębowo - Szkoła nż 01,,53.0064237762873,18.9227700233459,,,
2032,88801,Zębowo III nż 01,,53.0040156904897,18.9055502414703,,,
2025,80901,Łążyn I nż 01,,53.0002386633797,18.8908624649048,,,
2024,89102,Łążyn II nż 01,,53.0014912525811,18.8641583919525,,,
2026,87002,Dobrzejewice - Cmentarz nż 01,,53.0037961800098,18.8485157489777,,,
2064,81203,Dobrzejewice nż. 03,,53.0083733880923,18.8347882032394,,,
577,17804,Fort V nż. 04,,53.0420967652347,18.6096274852753,,,
172,51702,Forteczna nż. 02,,53.048427,18.616452,,,
521,64501,Fort V nż. 01,,53.0411646611562,18.6089837551117,,,
456,30401,Niesiołowskiego nż. 01,,53.0306359688197,18.674421608448,,,
501,52703,Katarzynki nż. 02,,53.037769,18.68848,,,
129,52801,Na Zapleczu 02,,53.040245,18.691108,,,
288,52901,Os. Pancernych 01,,53.043525,18.691342,,,
1938,69201,Przelot nż 01,,53.0382569474943,18.7244126200676,,,
423,08302,OKÓLNA 02,,52.986381,18.616051,,,
1763,40601,Elektryczna 01,,53.0399909934778,18.6006781877649,,,
901,60004,Kusocińskiego nż. 04,,53.0317073248897,18.7004352305997,,,
